<?xml version="1.0" encoding="UTF-8"?>
<kml xmlns="http://www.opengis.net/kml/2.2">
  <Document>
    <name>202105-taiwan</name>
    <description><![CDATA[Data source:<br>https://www.cdc.gov.tw/Bulletin/Detail/J3NvQid9xJ6TmwtaXhwi-A?typeid=9<br>https://www.cdc.gov.tw/Bulletin/Detail/PzUh5WsUgcedvUjp-Dg80Q?typeid=9]]></description>
    <Style id="icon-1899-0288D1-normal">
      <IconStyle>
        <color>ffd18802</color>
        <scale>1</scale>
        <Icon>
          <href>https://www.gstatic.com/mapspro/images/stock/503-wht-blank_maps.png</href>
        </Icon>
        <hotSpot x="32" xunits="pixels" y="64" yunits="insetPixels"/>
      </IconStyle>
      <LabelStyle>
        <scale>0</scale>
      </LabelStyle>
    </Style>
    <Style id="icon-1899-0288D1-highlight">
      <IconStyle>
        <color>ffd18802</color>
        <scale>1</scale>
        <Icon>
          <href>https://www.gstatic.com/mapspro/images/stock/503-wht-blank_maps.png</href>
        </Icon>
        <hotSpot x="32" xunits="pixels" y="64" yunits="insetPixels"/>
      </IconStyle>
      <LabelStyle>
        <scale>1</scale>
      </LabelStyle>
    </Style>
    <StyleMap id="icon-1899-0288D1">
      <Pair>
        <key>normal</key>
        <styleUrl>#icon-1899-0288D1-normal</styleUrl>
      </Pair>
      <Pair>
        <key>highlight</key>
        <styleUrl>#icon-1899-0288D1-highlight</styleUrl>
      </Pair>
    </StyleMap>
    <Style id="poly-000000-1200-77-normal">
      <LineStyle>
        <color>ff000000</color>
        <width>1.2</width>
      </LineStyle>
      <PolyStyle>
        <color>4d000000</color>
        <fill>1</fill>
        <outline>1</outline>
      </PolyStyle>
    </Style>
    <Style id="poly-000000-1200-77-highlight">
      <LineStyle>
        <color>ff000000</color>
        <width>1.8</width>
      </LineStyle>
      <PolyStyle>
        <color>4d000000</color>
        <fill>1</fill>
        <outline>1</outline>
      </PolyStyle>
    </Style>
    <StyleMap id="poly-000000-1200-77">
      <Pair>
        <key>normal</key>
        <styleUrl>#poly-000000-1200-77-normal</styleUrl>
      </Pair>
      <Pair>
        <key>highlight</key>
        <styleUrl>#poly-000000-1200-77-highlight</styleUrl>
      </Pair>
    </StyleMap>
    <Folder>
      <name>案 1203 相關接觸群聚案公共場所活動史</name>
      <Placemark>
        <name>05/04 晚上 (調查中) 晶華亭宴會廳</name>
        <description><![CDATA[#!metadata<br>begin:2021-05-04T19:00:00;end:2021-05-04T23:59:59]]></description>
        <styleUrl>#icon-1899-0288D1</styleUrl>
        <Point>
          <coordinates>
            121.454646,25.0416979,0
          </coordinates>
        </Point>
      </Placemark>
      <Placemark>
        <name>05/06 約 16:00~17:30 來來按摩 《蘆洲長安店》</name>
        <description><![CDATA[#!metadata<br>begin:2021-05-06T15:00:00;end:2021-05-06T18:30:00]]></description>
        <styleUrl>#icon-1899-0288D1</styleUrl>
        <Point>
          <coordinates>
            121.460775,25.081665,0
          </coordinates>
        </Point>
      </Placemark>
      <Placemark>
        <name>05/07 06:00~06:30 菜市場</name>
        <description><![CDATA[#!metadata<br>begin:2021-05-07T06:00:00;end:2021-05-07T06:30:00]]></description>
        <styleUrl>#icon-1899-0288D1</styleUrl>
        <Point>
          <coordinates>
            121.457889,25.0541399,0
          </coordinates>
        </Point>
      </Placemark>
      <Placemark>
        <name>05/06 19:00~21:00 大風車婚宴餐廳</name>
        <description><![CDATA[#!metadata<br>begin:2021-05-06T19:00:00;end:2021-05-06T21:00:00]]></description>
        <styleUrl>#icon-1899-0288D1</styleUrl>
        <Point>
          <coordinates>
            121.4803224,25.0820309,0
          </coordinates>
        </Point>
      </Placemark>
      <Placemark>
        <name>05/07~05/08 11:00~20:30 楊老爹黃金肉圓</name>
        <description><![CDATA[#!metadata<br>begin:2021-05-07T11:00:00;end:2021-05-08T20:30:00]]></description>
        <styleUrl>#icon-1899-0288D1</styleUrl>
        <Point>
          <coordinates>
            121.4464988,25.0420505,0
          </coordinates>
        </Point>
      </Placemark>
      <Placemark>
        <name>05/07 16:00~18:00 遠東 SOGO 台北復興館</name>
        <description><![CDATA[#!metadata<br>begin:2021-05-07T16:00:00;end:2021-05-07T18:00:00]]></description>
        <styleUrl>#icon-1899-0288D1</styleUrl>
        <Point>
          <coordinates>
            121.542942,25.0411353,0
          </coordinates>
        </Point>
      </Placemark>
      <Placemark>
        <name>05/08 約 07:30~08:30 三重力行菜市場</name>
        <description><![CDATA[#!metadata<br>begin:2021-05-08T07:00:00;end:2021-05-08T09:00:00]]></description>
        <styleUrl>#icon-1899-0288D1</styleUrl>
        <Point>
          <coordinates>
            121.4867453,25.0675786,0
          </coordinates>
        </Point>
      </Placemark>
      <Placemark>
        <name>05/08 12:30~13:30 菘賓餐廳</name>
        <description><![CDATA[#!metadata<br>begin:2021-05-08T12:30:00;end:2021-05-08T13:30:00]]></description>
        <styleUrl>#icon-1899-0288D1</styleUrl>
        <Point>
          <coordinates>
            121.4384842,25.0877151,0
          </coordinates>
        </Point>
      </Placemark>
      <Placemark>
        <name>05/08 17:00~19:00 阿秋越南小吃店</name>
        <description><![CDATA[#!metadata<br>begin:2021-05-08T17:00:00;end:2021-05-08T19:00:00]]></description>
        <styleUrl>#icon-1899-0288D1</styleUrl>
        <Point>
          <coordinates>
            121.4726708,25.0842625,0
          </coordinates>
        </Point>
      </Placemark>
      <Placemark>
        <name>05/08 19:30~21:00 林口三井 Outlet</name>
        <description><![CDATA[#!metadata<br>begin:2021-05-08T19:30:00;end:2021-05-08T21:00:00]]></description>
        <styleUrl>#icon-1899-0288D1</styleUrl>
        <Point>
          <coordinates>
            121.3647993,25.0705502,0
          </coordinates>
        </Point>
      </Placemark>
      <Placemark>
        <name>05/08 晚上 醐同燒肉夜食五號店</name>
        <description><![CDATA[#!metadata<br>begin:2021-05-08T18:00:00;end:2021-05-08T23:59:59]]></description>
        <styleUrl>#icon-1899-0288D1</styleUrl>
        <Point>
          <coordinates>
            121.5679057,25.0355169,0
          </coordinates>
        </Point>
      </Placemark>
      <Placemark>
        <name>05/08 10:30 國父紀念館 巧虎奇幻音樂世界演奏會</name>
        <description><![CDATA[#!metadata<br>begin:2021-05-08T09:00:00;end:2021-05-08T13:00:00]]></description>
        <styleUrl>#icon-1899-0288D1</styleUrl>
        <Point>
          <coordinates>
            121.5602452,25.0400306,0
          </coordinates>
        </Point>
      </Placemark>
      <Placemark>
        <name>05/08 方記三杯滷味</name>
        <description><![CDATA[#!metadata<br>begin:2021-05-08T00:00:00;end:2021-05-08T23:59:59]]></description>
        <styleUrl>#icon-1899-0288D1</styleUrl>
        <Point>
          <coordinates>
            121.291593,25.0497842,0
          </coordinates>
        </Point>
      </Placemark>
      <Placemark>
        <name>05/08 晚上 海霸王餐廳蘆洲店</name>
        <description><![CDATA[#!metadata<br>begin:2021-05-08T18:00:00;end:2021-05-08T23:59:59]]></description>
        <styleUrl>#icon-1899-0288D1</styleUrl>
        <Point>
          <coordinates>
            121.4784103,25.0816565,0
          </coordinates>
        </Point>
      </Placemark>
      <Placemark>
        <name>05/09 07:00~12:00 基隆八斗子釣魚</name>
        <description><![CDATA[#!metadata<br>begin:2021-05-09T07:00:00;end:2021-05-09T12:00:00]]></description>
        <styleUrl>#icon-1899-0288D1</styleUrl>
        <Point>
          <coordinates>
            121.7962777,25.1411143,0
          </coordinates>
        </Point>
      </Placemark>
      <Placemark>
        <name>05/09 08:00~12:00 成泰里守望相助活動中心</name>
        <description><![CDATA[#!metadata<br>begin:2021-05-09T08:00:00;end:2021-05-09T12:00:00]]></description>
        <styleUrl>#icon-1899-0288D1</styleUrl>
        <Point>
          <coordinates>
            121.4424377,25.089817,0
          </coordinates>
        </Point>
      </Placemark>
      <Placemark>
        <name>05/09 11:00~14:00 好市多 Costco 新莊店</name>
        <description><![CDATA[#!metadata<br>begin:2021-05-09T11:00:00;end:2021-05-09T14:00:00]]></description>
        <styleUrl>#icon-1899-0288D1</styleUrl>
        <Point>
          <coordinates>
            121.434206,25.0273744,0
          </coordinates>
        </Point>
      </Placemark>
      <Placemark>
        <name>05/09 12:00~14:00 二泉湖畔咖啡</name>
        <description><![CDATA[#!metadata<br>begin:2021-05-09T12:00:00;end:2021-05-09T14:00:00]]></description>
        <styleUrl>#icon-1899-0288D1</styleUrl>
        <Point>
          <coordinates>
            120.9855324,24.6755274,0
          </coordinates>
        </Point>
      </Placemark>
      <Placemark>
        <name>05/09 12:00~14:30 下城老地方酒餐館</name>
        <description><![CDATA[#!metadata<br>begin:2021-05-09T12:00:00;end:2021-05-09T14:30:00]]></description>
        <styleUrl>#icon-1899-0288D1</styleUrl>
        <Point>
          <coordinates>
            121.5234198,24.9636043,0
          </coordinates>
        </Point>
      </Placemark>
      <Placemark>
        <name>05/09 17:30 新竹市城隍廟</name>
        <description><![CDATA[#!metadata<br>begin:2021-05-09T17:00:00;end:2021-05-09T18:00:00]]></description>
        <styleUrl>#icon-1899-0288D1</styleUrl>
        <Point>
          <coordinates>
            120.966147,24.8042436,0
          </coordinates>
        </Point>
      </Placemark>
      <Placemark>
        <name>05/09 晚上 天母銀座日式料理</name>
        <description><![CDATA[#!metadata<br>begin:2021-05-09T18:00:00;end:2021-05-10T00:00:00]]></description>
        <styleUrl>#icon-1899-0288D1</styleUrl>
        <Point>
          <coordinates>
            121.5280683,25.1077333,0
          </coordinates>
        </Point>
      </Placemark>
      <Placemark>
        <name>05/09 14:00~15:00 尚井日式涮涮鍋</name>
        <description><![CDATA[#!metadata<br>begin:2021-05-09T14:00:00;end:2021-05-10T15:00:00]]></description>
        <styleUrl>#icon-1899-0288D1</styleUrl>
        <Point>
          <coordinates>
            121.480833,25.066565,0
          </coordinates>
        </Point>
      </Placemark>
      <Placemark>
        <name>05/09 18:00~19:30 人从众厚切牛排-蘆洲店</name>
        <description><![CDATA[#!metadata<br>begin:2021-05-09T18:00:00;end:2021-05-09T19:30:00]]></description>
        <styleUrl>#icon-1899-0288D1</styleUrl>
        <Point>
          <coordinates>
            121.4625994,25.0835028,0
          </coordinates>
        </Point>
      </Placemark>
      <Placemark>
        <name>05/09 約 19:00 松風日本料理</name>
        <description><![CDATA[#!metadata<br>begin:2021-05-09T18:00:00;end:2021-05-09T23:00:00]]></description>
        <styleUrl>#icon-1899-0288D1</styleUrl>
        <Point>
          <coordinates>
            121.31448,25.015953,0
          </coordinates>
        </Point>
      </Placemark>
      <Placemark>
        <name>05/09 19:00~21:00 鴻囍宴會館旗艦店</name>
        <description><![CDATA[#!metadata<br>begin:2021-05-09T19:00:00;end:2021-05-09T21:00:00]]></description>
        <styleUrl>#icon-1899-0288D1</styleUrl>
        <Point>
          <coordinates>
            121.43829,25.053309,0
          </coordinates>
        </Point>
      </Placemark>
      <Placemark>
        <name>05/10 約 12:00 好市多 Costco 北投店</name>
        <description><![CDATA[#!metadata<br>begin:2021-05-10T11:00:00;end:2021-05-10T14:00:00]]></description>
        <styleUrl>#icon-1899-0288D1</styleUrl>
        <Point>
          <coordinates>
            121.4704272,25.1276792,0
          </coordinates>
        </Point>
      </Placemark>
      <Placemark>
        <name>05/10 12:30~14:00 英芳飯店海鮮餐廳</name>
        <description><![CDATA[#!metadata<br>begin:2021-05-10T12:30:00;end:2021-05-10T14:00:00]]></description>
        <styleUrl>#icon-1899-0288D1</styleUrl>
        <Point>
          <coordinates>
            121.5658696,25.2915313,0
          </coordinates>
        </Point>
      </Placemark>
      <Placemark>
        <name>05/10 14:00~17:30 茶自點（中正店）</name>
        <description><![CDATA[#!metadata<br>begin:2021-05-10T14:00:00;end:2021-05-10T18:00:00]]></description>
        <styleUrl>#icon-1899-0288D1</styleUrl>
        <Point>
          <coordinates>
            121.302473,25.0077529,0
          </coordinates>
        </Point>
      </Placemark>
      <Placemark>
        <name>05/10 下午 康舒工程</name>
        <description><![CDATA[#!metadata<br>begin:2021-05-10T14:00:00;end:2021-05-11T00:00:00]]></description>
        <styleUrl>#icon-1899-0288D1</styleUrl>
        <Point>
          <coordinates>
            121.4482734,25.2025755,0
          </coordinates>
        </Point>
      </Placemark>
      <Placemark>
        <name>05/10 18:00~19:00 孫東寶牛排館</name>
        <description><![CDATA[#!metadata<br>begin:2021-05-10T17:00:00;end:2021-05-10T20:00:00]]></description>
        <styleUrl>#icon-1899-0288D1</styleUrl>
        <Point>
          <coordinates>
            121.4593567,25.0875783,0
          </coordinates>
        </Point>
      </Placemark>
      <Placemark>
        <name>05/09 07:00~12:00 基隆八斗子釣魚</name>
        <description><![CDATA[#!metadata<br>begin:2021-05-09T07:00:00;end:2021-05-09T12:00:00]]></description>
        <styleUrl>#poly-000000-1200-77</styleUrl>
        <Polygon>
          <outerBoundaryIs>
            <LinearRing>
              <tessellate>1</tessellate>
              <coordinates>
                121.7910106,25.1485284,0
                121.7848737,25.1500046,0
                121.7840583,25.1456536,0
                121.7884357,25.1424292,0
                121.8025119,25.1340375,0
                121.8041427,25.1356304,0
                121.8046147,25.1380003,0
                121.8035848,25.1420407,0
                121.8078334,25.1468191,0
                121.8068893,25.1486061,0
                121.7910106,25.1485284,0
              </coordinates>
            </LinearRing>
          </outerBoundaryIs>
        </Polygon>
      </Placemark>
      <Placemark>
        <name>05/08 19:30~21:00 林口三井 Outlet</name>
        <description><![CDATA[#!metadata<br>begin:2021-05-08T19:30:00;end:2021-05-08T21:00:00]]></description>
        <styleUrl>#poly-000000-1200-77</styleUrl>
        <Polygon>
          <outerBoundaryIs>
            <LinearRing>
              <tessellate>1</tessellate>
              <coordinates>
                121.3623531,25.0705502,0
                121.3650139,25.0688398,0
                121.3638122,25.0669739,0
                121.3653572,25.0665852,0
                121.3665588,25.0681012,0
                121.3677175,25.0684122,0
                121.367975,25.070317,0
                121.3672026,25.0711333,0
                121.3666876,25.0707446,0
                121.3659151,25.0714443,0
                121.3651855,25.0709778,0
                121.3636835,25.0719496,0
                121.3623531,25.0705502,0
              </coordinates>
            </LinearRing>
          </outerBoundaryIs>
        </Polygon>
      </Placemark>
      <Placemark>
        <name>05/08 調查中 台北地下街 Y 區</name>
        <description><![CDATA[#!metadata<br>begin:2021-05-08T00:00:00;end:2021-05-08T23:59:59]]></description>
        <styleUrl>#poly-000000-1200-77</styleUrl>
        <Polygon>
          <outerBoundaryIs>
            <LinearRing>
              <tessellate>1</tessellate>
              <coordinates>
                121.5106368,25.0503768,0
                121.5104008,25.0498714,0
                121.5117312,25.0495993,0
                121.5132976,25.0491327,0
                121.5151215,25.0486079,0
                121.5185654,25.0481024,0
                121.5185869,25.0486467,0
                121.5150786,25.0491716,0
                121.5132976,25.0497159,0
                121.5106368,25.0503768,0
              </coordinates>
            </LinearRing>
          </outerBoundaryIs>
        </Polygon>
      </Placemark>
      <Placemark>
        <name>05/09 12:00~14:00 二泉湖畔咖啡</name>
        <description><![CDATA[#!metadata<br>begin:2021-05-09T12:00:00;end:2021-05-09T14:00:00]]></description>
        <styleUrl>#poly-000000-1200-77</styleUrl>
        <Polygon>
          <outerBoundaryIs>
            <LinearRing>
              <tessellate>1</tessellate>
              <coordinates>
                120.9852749,24.6753868,0
                120.98557,24.6752406,0
                120.9858972,24.6756695,0
                120.9855163,24.6758401,0
                120.9852749,24.6753868,0
              </coordinates>
            </LinearRing>
          </outerBoundaryIs>
        </Polygon>
      </Placemark>
    </Folder>
    <Folder>
      <name>萬華茶藝館群聚事件公共場所活動史</name>
      <Placemark>
        <name>05/01 07:00 自磅磅仔三府宮出發</name>
        <description><![CDATA[#!metadata<br>begin:2021-05-01T07:00:00;end:2021-05-01T08:00:00]]></description>
        <styleUrl>#icon-1899-0288D1</styleUrl>
        <Point>
          <coordinates>
            121.8261645,25.1209841,0
          </coordinates>
        </Point>
      </Placemark>
      <Placemark>
        <name>05/01 10:00 南投竹山紫南宮</name>
        <description><![CDATA[#!metadata<br>begin:2021-05-01T10:00:00;end:2021-05-01T12:00:00]]></description>
        <styleUrl>#icon-1899-0288D1</styleUrl>
        <Point>
          <coordinates>
            120.7225876,23.8171616,0
          </coordinates>
        </Point>
      </Placemark>
      <Placemark>
        <name>05/01 12:00 南投竹山丸滿餐廳</name>
        <description><![CDATA[#!metadata<br>begin:2021-05-01T12:00:00;end:2021-05-01T13:00:00]]></description>
        <styleUrl>#icon-1899-0288D1</styleUrl>
        <Point>
          <coordinates>
            120.714988,23.803539,0
          </coordinates>
        </Point>
      </Placemark>
      <Placemark>
        <name>05/01 13:00~14:00 台南府城正統鹿耳門</name>
        <description><![CDATA[#!metadata<br>begin:2021-05-01T13:00:00;end:2021-05-01T14:00:00]]></description>
        <styleUrl>#icon-1899-0288D1</styleUrl>
        <Point>
          <coordinates>
            120.1273734,23.0677121,0
          </coordinates>
        </Point>
      </Placemark>
      <Placemark>
        <name>05/01 13:00~14:00 萬國通路創意觀光工廠</name>
        <description><![CDATA[#!metadata<br>begin:2021-05-01T13:00:00;end:2021-05-01T14:00:00]]></description>
        <styleUrl>#icon-1899-0288D1</styleUrl>
        <Point>
          <coordinates>
            120.2778068,22.9351511,0
          </coordinates>
        </Point>
      </Placemark>
      <Placemark>
        <name>05/01 17:00 高雄市大寮朝鳳宮</name>
        <description><![CDATA[#!metadata<br>begin:2021-05-01T17:00:00;end:2021-05-01T20:30:00]]></description>
        <styleUrl>#icon-1899-0288D1</styleUrl>
        <Point>
          <coordinates>
            120.409248,22.619636,0
          </coordinates>
        </Point>
      </Placemark>
      <Placemark>
        <name>05/01 20:30~05/02 07:00 高雄市金獅湖保安宮</name>
        <description><![CDATA[#!metadata<br>begin:2021-05-01T20:30:00;end:2021-05-02T08:00:00]]></description>
        <styleUrl>#icon-1899-0288D1</styleUrl>
        <Point>
          <coordinates>
            120.3269494,22.6661259,0
          </coordinates>
        </Point>
      </Placemark>
      <Placemark>
        <name>05/02 13:00 鹿港天后宮</name>
        <description><![CDATA[#!metadata<br>begin:2021-05-02T12:00:00;end:2021-05-02T14:00:00]]></description>
        <styleUrl>#icon-1899-0288D1</styleUrl>
        <Point>
          <coordinates>
            120.4314407,24.0593071,0
          </coordinates>
        </Point>
      </Placemark>
      <Placemark>
        <name>05/02 13:00 雲林東勢開安宮</name>
        <description><![CDATA[#!metadata<br>begin:2021-05-02T12:00:00;end:2021-05-02T14:00:00]]></description>
        <styleUrl>#icon-1899-0288D1</styleUrl>
        <Point>
          <coordinates>
            120.2664086,23.7096665,0
          </coordinates>
        </Point>
      </Placemark>
      <Placemark>
        <name>05/02 13:00~18:00 台中沙鹿金福華餐廳</name>
        <description><![CDATA[#!metadata<br>begin:2021-05-02T13:00:00;end:2021-05-02T18:30:00]]></description>
        <styleUrl>#icon-1899-0288D1</styleUrl>
        <Point>
          <coordinates>
            120.5818515,24.2503532,0
          </coordinates>
        </Point>
      </Placemark>
      <Placemark>
        <name>05/02 13:00~18:00 苗栗白沙屯拱天宮</name>
        <description><![CDATA[#!metadata<br>begin:2021-05-02T13:00:00;end:2021-05-02T18:00:00]]></description>
        <styleUrl>#icon-1899-0288D1</styleUrl>
        <Point>
          <coordinates>
            120.7092086,24.5714179,0
          </coordinates>
        </Point>
      </Placemark>
      <Placemark>
        <name>05/02 13:00~18:00 後龍乾富宮</name>
        <description><![CDATA[#!metadata<br>begin:2021-05-02T13:00:00;end:2021-05-02T18:00:00]]></description>
        <styleUrl>#icon-1899-0288D1</styleUrl>
        <Point>
          <coordinates>
            120.7743502,24.6040643,0
          </coordinates>
        </Point>
      </Placemark>
      <Placemark>
        <name>05/02 18:00 土城古都餐廳</name>
        <description><![CDATA[#!metadata<br>begin:2021-05-02T17:00:00;end:2021-05-02T19:00:00]]></description>
        <styleUrl>#icon-1899-0288D1</styleUrl>
        <Point>
          <coordinates>
            121.4377736,24.9714212,0
          </coordinates>
        </Point>
      </Placemark>
      <Placemark>
        <name>05/02~05/08 11:00~14:00 鴻達茶藝館</name>
        <description><![CDATA[#!metadata<br>begin:2021-05-02T10:00:00;end:2021-05-08T15:00:00]]></description>
        <styleUrl>#icon-1899-0288D1</styleUrl>
        <Point>
          <coordinates>
            121.4981165,25.0361044,0
          </coordinates>
        </Point>
      </Placemark>
      <Placemark>
        <name>05/06 08:00 內壢郵局</name>
        <description><![CDATA[#!metadata<br>begin:2021-05-06T07:00:00;end:2021-05-06T09:00:00]]></description>
        <styleUrl>#icon-1899-0288D1</styleUrl>
        <Point>
          <coordinates>
            121.255718,24.974435,0
          </coordinates>
        </Point>
      </Placemark>
      <Placemark>
        <name>05/06 約13:00 雲雀清茶館</name>
        <description><![CDATA[#!metadata<br>begin:2021-05-06T12:00:00;end:2021-05-08T14:00:00]]></description>
        <styleUrl>#icon-1899-0288D1</styleUrl>
        <Point>
          <coordinates>
            121.498529,25.035779,0
          </coordinates>
        </Point>
      </Placemark>
      <Placemark>
        <name>05/06~05/11 14:00~22:00 美金飲酒店</name>
        <description><![CDATA[#!metadata<br>begin:2021-05-06T13:00:00;end:2021-05-11T23:00:00]]></description>
        <styleUrl>#icon-1899-0288D1</styleUrl>
        <Point>
          <coordinates>
            121.4981758,25.0360985,0
          </coordinates>
        </Point>
      </Placemark>
      <Placemark>
        <name>05/07 09:00~10:00 基隆信義市場</name>
        <description><![CDATA[#!metadata<br>begin:2021-05-07T09:00:00;end:2021-05-07T10:00:00]]></description>
        <styleUrl>#icon-1899-0288D1</styleUrl>
        <Point>
          <coordinates>
            121.7527269,25.1295671,0
          </coordinates>
        </Point>
      </Placemark>
      <Placemark>
        <name>05/07 09:00~10:00 基隆信義市場</name>
        <description><![CDATA[#!metadata<br>begin:2021-05-07T09:00:00;end:2021-05-07T10:00:00]]></description>
        <styleUrl>#icon-1899-0288D1</styleUrl>
        <Point>
          <coordinates>
            121.7524816,25.1295585,0
          </coordinates>
        </Point>
      </Placemark>
      <Placemark>
        <name>05/07 中午~18:00 珠海飲酒店(珠海清茶館)</name>
        <description><![CDATA[#!metadata<br>begin:2021-05-07T11:30:00;end:2021-05-07T18:30:00]]></description>
        <styleUrl>#icon-1899-0288D1</styleUrl>
        <Point>
          <coordinates>
            121.4980199,25.0362253,0
          </coordinates>
        </Point>
      </Placemark>
      <Placemark>
        <name>05/07 約中午前 鹿港竹安宮</name>
        <description><![CDATA[#!metadata<br>begin:2021-05-07T11:00:00;end:2021-05-07T13:00:00]]></description>
        <styleUrl>#icon-1899-0288D1</styleUrl>
        <Point>
          <coordinates>
            120.4560019,24.0796104,0
          </coordinates>
        </Point>
      </Placemark>
      <Placemark>
        <name>05/07 午餐 芳苑普天宮</name>
        <description><![CDATA[#!metadata<br>begin:2021-05-07T11:30:00;end:2021-05-07T14:00:00]]></description>
        <styleUrl>#icon-1899-0288D1</styleUrl>
        <Point>
          <coordinates>
            120.316697,23.9291478,0
          </coordinates>
        </Point>
      </Placemark>
      <Placemark>
        <name>05/07 約下午 北港朝天宮</name>
        <description><![CDATA[#!metadata<br>begin:2021-05-07T12:30:00;end:2021-05-07T19:00:00]]></description>
        <styleUrl>#icon-1899-0288D1</styleUrl>
        <Point>
          <coordinates>
            120.3046447,23.5678056,0
          </coordinates>
        </Point>
      </Placemark>
      <Placemark>
        <name>05/07 晚餐 布袋嘉應廟</name>
        <description><![CDATA[#!metadata<br>begin:2021-05-07T18:00:00;end:2021-05-07T21:00:00]]></description>
        <styleUrl>#icon-1899-0288D1</styleUrl>
        <Point>
          <coordinates>
            120.1573736,23.3780597,0
          </coordinates>
        </Point>
      </Placemark>
      <Placemark>
        <name>05/07 約晚上 新塭嘉應廟</name>
        <description><![CDATA[#!metadata<br>begin:2021-05-07T18:00:00;end:2021-05-07T23:59:59]]></description>
        <styleUrl>#icon-1899-0288D1</styleUrl>
        <Point>
          <coordinates>
            120.1603792,23.3270048,0
          </coordinates>
        </Point>
      </Placemark>
      <Placemark>
        <name>05/07 約 06:00 青龍宮</name>
        <description><![CDATA[#!metadata<br>begin:2021-05-07T05:00:00;end:2021-05-07T07:00:00]]></description>
        <styleUrl>#icon-1899-0288D1</styleUrl>
        <Point>
          <coordinates>
            121.4924606,25.0288302,0
          </coordinates>
        </Point>
      </Placemark>
      <Placemark>
        <name>05/07 約 06:00 青龍宮</name>
        <description><![CDATA[#!metadata<br>begin:2021-05-07T05:00:00;end:2021-05-07T07:00:00]]></description>
        <styleUrl>#icon-1899-0288D1</styleUrl>
        <Point>
          <coordinates>
            121.533093,25.028532,0
          </coordinates>
        </Point>
      </Placemark>
      <Placemark>
        <name>05/07 約 06:00 青龍宮</name>
        <description><![CDATA[#!metadata<br>begin:2021-05-07T05:00:00;end:2021-05-07T07:00:00]]></description>
        <styleUrl>#icon-1899-0288D1</styleUrl>
        <Point>
          <coordinates>
            120.6887575,24.1436268,0
          </coordinates>
        </Point>
      </Placemark>
      <Placemark>
        <name>05/07 21:30~05/08 07:00 夜宿南鯤鯓、早餐</name>
        <description><![CDATA[#!metadata<br>begin:2021-05-07T21:00:00;end:2021-05-08T08:00:00]]></description>
        <styleUrl>#poly-000000-1200-77</styleUrl>
        <Polygon>
          <outerBoundaryIs>
            <LinearRing>
              <tessellate>1</tessellate>
              <coordinates>
                120.1414396,23.2899267,0
                120.1406564,23.2867633,0
                120.1380492,23.2847332,0
                120.1399912,23.2820033,0
                120.1453663,23.2834619,0
                120.1463748,23.2849106,0
                120.1414396,23.2899267,0
              </coordinates>
            </LinearRing>
          </outerBoundaryIs>
        </Polygon>
      </Placemark>
      <Placemark>
        <name>05/07 17:30~23:30 娘子小吃店</name>
        <description><![CDATA[#!metadata<br>begin:2021-05-07T17:30:00;end:2021-05-07T23:30:00]]></description>
        <styleUrl>#icon-1899-0288D1</styleUrl>
        <Point>
          <coordinates>
            121.4986012,25.0362168,0
          </coordinates>
        </Point>
      </Placemark>
      <Placemark>
        <name>05/08 08:00~13:00 新塭嘉應廟沖水路</name>
        <description><![CDATA[#!metadata<br>begin:2021-05-08T08:00:00;end:2021-05-08T13:00:00]]></description>
        <styleUrl>#icon-1899-0288D1</styleUrl>
        <Point>
          <coordinates>
            120.1603792,23.3270048,0
          </coordinates>
        </Point>
      </Placemark>
      <Placemark>
        <name>05/08 17:30~晚餐 桃園龍潭儷宴餐廳</name>
        <description><![CDATA[#!metadata<br>begin:2021-05-08T17:00:00;end:2021-05-08T23:00:00]]></description>
        <styleUrl>#icon-1899-0288D1</styleUrl>
        <Point>
          <coordinates>
            121.2219698,24.8650925,0
          </coordinates>
        </Point>
      </Placemark>
      <Placemark>
        <name>05/08 08:00~13:00 嘉應廟沖水路</name>
        <description><![CDATA[#!metadata<br>begin:2021-05-08T08:00:00;end:2021-05-08T13:00:00]]></description>
        <styleUrl>#poly-000000-1200-77</styleUrl>
        <Polygon>
          <outerBoundaryIs>
            <LinearRing>
              <tessellate>1</tessellate>
              <coordinates>
                120.1602171,23.3275588,0
                120.1602064,23.3269874,0
                120.1600669,23.3266377,0
                120.1602976,23.3265835,0
                120.1604693,23.3269924,0
                120.1603459,23.3275588,0
                120.1602171,23.3275588,0
              </coordinates>
            </LinearRing>
          </outerBoundaryIs>
        </Polygon>
      </Placemark>
      <Placemark>
        <name>05/08 17:30~23:30 娘子小吃店</name>
        <description><![CDATA[#!metadata<br>begin:2021-05-08T17:30:00;end:2021-05-08T23:30:00]]></description>
        <styleUrl>#icon-1899-0288D1</styleUrl>
        <Point>
          <coordinates>
            121.4986012,25.0362168,0
          </coordinates>
        </Point>
      </Placemark>
      <Placemark>
        <name>05/08 約20:00 青龍宮</name>
        <description><![CDATA[#!metadata<br>begin:2021-05-08T18:00:00;end:2021-05-08T23:00:00]]></description>
        <styleUrl>#icon-1899-0288D1</styleUrl>
        <Point>
          <coordinates>
            121.4924606,25.0288302,0
          </coordinates>
        </Point>
      </Placemark>
      <Placemark>
        <name>05/08 約20:00 青龍宮</name>
        <description><![CDATA[#!metadata<br>begin:2021-05-08T18:00:00;end:2021-05-08T23:00:00]]></description>
        <styleUrl>#icon-1899-0288D1</styleUrl>
        <Point>
          <coordinates>
            121.533093,25.028532,0
          </coordinates>
        </Point>
      </Placemark>
      <Placemark>
        <name>05/08 約20:00 青龍宮</name>
        <description><![CDATA[#!metadata<br>begin:2021-05-08T18:00:00;end:2021-05-08T23:00:00]]></description>
        <styleUrl>#icon-1899-0288D1</styleUrl>
        <Point>
          <coordinates>
            120.6887575,24.1436268,0
          </coordinates>
        </Point>
      </Placemark>
      <Placemark>
        <name>05/08 約 18:30~19:30 小峨嵋川菜館</name>
        <description><![CDATA[#!metadata<br>begin:2021-05-08T18:00:00;end:2021-05-08T20:00:00]]></description>
        <styleUrl>#icon-1899-0288D1</styleUrl>
        <Point>
          <coordinates>
            121.7458853,25.1329911,0
          </coordinates>
        </Point>
      </Placemark>
      <Placemark>
        <name>05/09 16:00~ 05/10 03:49 銀河百家樂</name>
        <description><![CDATA[#!metadata<br>begin:2021-05-09T15:00:00;end:2021-05-10T04:00:00]]></description>
        <styleUrl>#icon-1899-0288D1</styleUrl>
        <Point>
          <coordinates>
            121.772005,24.6795451,0
          </coordinates>
        </Point>
      </Placemark>
      <Placemark>
        <name>05/09 16:00~05/10 02:00 大地球遊藝場</name>
        <description><![CDATA[#!metadata<br>begin:2021-05-09T15:00:00;end:2021-05-10T03:00:00]]></description>
        <styleUrl>#icon-1899-0288D1</styleUrl>
        <Point>
          <coordinates>
            121.754875,24.7572722,0
          </coordinates>
        </Point>
      </Placemark>
      <Placemark>
        <name>05/10 16:36~23:08 巨城電玩</name>
        <description><![CDATA[#!metadata<br>begin:2021-05-10T16:00:00;end:2021-05-10T23:59:59]]></description>
        <styleUrl>#icon-1899-0288D1</styleUrl>
        <Point>
          <coordinates>
            121.7708908,24.8266567,0
          </coordinates>
        </Point>
      </Placemark>
      <Placemark>
        <name>05/10 15:00~23:00 楓香清茶館</name>
        <description><![CDATA[#!metadata<br>begin:2021-05-10T14:00:00;end:2021-05-10T23:59:59]]></description>
        <styleUrl>#icon-1899-0288D1</styleUrl>
        <Point>
          <coordinates>
            121.4990718,25.0375942,0
          </coordinates>
        </Point>
      </Placemark>
      <Placemark>
        <name>05/11 07:00~07:40 Q Burger 樹林千歲店</name>
        <description><![CDATA[#!metadata<br>begin:2021-05-11T07:00:00;end:2021-05-11T07:40:00]]></description>
        <styleUrl>#icon-1899-0288D1</styleUrl>
        <Point>
          <coordinates>
            121.425117,24.995689,0
          </coordinates>
        </Point>
      </Placemark>
      <Placemark>
        <name>05/11 07:40~09:00 保安市場</name>
        <description><![CDATA[#!metadata<br>begin:2021-05-11T07:40:00;end:2021-05-11T09:00:00]]></description>
        <styleUrl>#icon-1899-0288D1</styleUrl>
        <Point>
          <coordinates>
            121.429016,24.9949523,0
          </coordinates>
        </Point>
      </Placemark>
      <Placemark>
        <name>05/12 07:00~08:00 保安市場</name>
        <description><![CDATA[#!metadata<br>begin:2021-05-12T07:00:00;end:2021-05-12T08:00:00]]></description>
        <styleUrl>#icon-1899-0288D1</styleUrl>
        <Point>
          <coordinates>
            121.429016,24.9949523,0
          </coordinates>
        </Point>
      </Placemark>
    </Folder>
    <Folder>
      <name>遊藝場群聚事件公共場所活動史</name>
      <Placemark>
        <name>05/06~05/09 00:00~08:00 銀河百家樂遊藝場</name>
        <description><![CDATA[#!metadata<br>begin:2021-05-06T00:00:00;end:2021-05-09T08:00:00]]></description>
        <styleUrl>#icon-1899-0288D1</styleUrl>
        <Point>
          <coordinates>
            121.772005,24.6795451,0
          </coordinates>
        </Point>
      </Placemark>
      <Placemark>
        <name>05/06 約 18:00 三媽臭臭鍋 羅東中山店</name>
        <description><![CDATA[#!metadata<br>begin:2021-05-06T17:00:00;end:2021-05-06T20:00:00]]></description>
        <styleUrl>#icon-1899-0288D1</styleUrl>
        <Point>
          <coordinates>
            121.7785968,24.6742724,0
          </coordinates>
        </Point>
      </Placemark>
      <Placemark>
        <name>05/07 約 01:00~02:00 老將自助餐</name>
        <description><![CDATA[#!metadata<br>begin:2021-05-06T23:00:00;end:2021-05-07T03:00:00]]></description>
        <styleUrl>#icon-1899-0288D1</styleUrl>
        <Point>
          <coordinates>
            121.7644293,24.7986367,0
          </coordinates>
        </Point>
      </Placemark>
      <Placemark>
        <name>05/07 約 17:30~18:30 八方悅鍋物 羅東店</name>
        <description><![CDATA[#!metadata<br>begin:2021-05-07T16:30:00;end:2021-05-07T19:30:00]]></description>
        <styleUrl>#icon-1899-0288D1</styleUrl>
        <Point>
          <coordinates>
            121.751225,24.671877,0
          </coordinates>
        </Point>
      </Placemark>
      <Placemark>
        <name>05/10 約晚上 久千代海鮮百匯餐廳</name>
        <description><![CDATA[#!metadata<br>begin:2021-05-10T18:00:00;end:2021-05-10T23:00:00]]></description>
        <styleUrl>#icon-1899-0288D1</styleUrl>
        <Point>
          <coordinates>
            121.7459261,24.7495948,0
          </coordinates>
        </Point>
      </Placemark>
      <Placemark>
        <name>05/10 約晚上 全聯 宜蘭嵐峰門市</name>
        <description><![CDATA[#!metadata<br>begin:2021-05-10T18:00:00;end:2021-05-10T23:00:00]]></description>
        <styleUrl>#icon-1899-0288D1</styleUrl>
        <Point>
          <coordinates>
            121.753618,24.742692,0
          </coordinates>
        </Point>
      </Placemark>
    </Folder>
    <Folder>
      <name>案1187公共場所活動史</name>
      <Placemark>
        <name>05/03 約 18:30~20:00 台北福華大飯店 七賢吧</name>
        <description><![CDATA[#!metadata<br>begin:2021-05-03T17:30:00;end:2021-05-03T21:00:00]]></description>
        <styleUrl>#icon-1899-0288D1</styleUrl>
        <Point>
          <coordinates>
            121.5431545,25.0376486,0
          </coordinates>
        </Point>
      </Placemark>
      <Placemark>
        <name>05/03 約 18:30~19:30 餡老滿 南港店</name>
        <description><![CDATA[#!metadata<br>begin:2021-05-03T17:30:00;end:2021-05-03T20:30:00]]></description>
        <styleUrl>#icon-1899-0288D1</styleUrl>
        <Point>
          <coordinates>
            121.6157681,25.0573875,0
          </coordinates>
        </Point>
      </Placemark>
    </Folder>
  </Document>
</kml>
